{"results":[{"fsq_id":"4b044c50f964a5200b5322e3","categories":[{"id":13018,"name":"Pub","icon":{"prefix":"https://ss3.4sqi.net/img/categories_v2/nightlife/pub_","suffix":".png"}},{"id":13057,"name":"Gastropub","icon":{"prefix":"https://ss3.4sqi.net/img/categories_v2/food/gastropub_","suffix":".png"}},{"id":13383,"name":"Steakhouse","icon":{"prefix":"https://ss3.4sqi.net/img/categories_v2/food/steakhouse_","suffix":".png"}}],"chains":[],"distance":31,"geocodes":{"main":{"latitude":53.343411,"longitude":-6.269951},"roof":{"latitude":53.343411,"longitude":-6.269951}},"link":"/v3/places/4b044c50f964a5200b5322e3","location":{"address":"5 - 7 Lord Edward St","admin_region":"Leinster","country":"IE","formatted_address":"5 - 7 Lord Edward St, Dublin, Dublin City","locality":"Dublin","postcode":"Dublin 2","region":"Dublin City"},"name":"The Bull and Castle","related_places":{},"timezone":"Europe/Dublin"},{"fsq_id":"4b2a2ceff964a520cba524e3","categories":[{"id":13016,"name":"Lounge","icon":{"prefix":"https://ss3.4sqi.net/img/categories_v2/nightlife/default_","suffix":".png"}},{"id":13018,"name":"Pub","icon":{"prefix":"https://ss3.4sqi.net/img/categories_v2/nightlife/pub_","suffix":".png"}},{"id":13065,"name":"Restaurant","icon":{"prefix":"https://ss3.4sqi.net/img/categories_v2/food/default_","suffix":".png"}}],"chains":[],"distance":61,"geocodes":{"main":{"latitude":53.343967,"longitude":-6.269851},"roof":{"latitude":53.343967,"longitude":-6.269851}},"link":"/v3/places/4b2a2ceff964a520cba524e3","location":{"address":"Fishamble St","admin_region":"Leinster","country":"IE","formatted_address":"Fishamble St, Dublin, Dublin City","locality":"Dublin","postcode":"Dublin 2","region":"Dublin City"},"name":"Darkey Kellys","related_places":{},"timezone":"Europe/Dublin"},{"fsq_id":"4c7d3c3b10916dcb4fca2896","categories":[{"id":10030,"name":"History Museum","icon":{"prefix":"https://ss3.4sqi.net/img/categories_v2/arts_entertainment/museum_history_","suffix":".png"}}],"chains":[],"distance":97,"geocodes":{"main":{"latitude":53.343226,"longitude":-6.272074},"roof":{"latitude":53.343226,"longitude":-6.272074}},"link":"/v3/places/4c7d3c3b10916dcb4fca2896","location":{"address":"St Michael's Hill","admin_region":"Leinster","country":"IE","formatted_address":"St Michael's Hill, Dublin, Dublin City","locality":"Dublin","neighborhood":["Christchurch"],"postcode":"Dublin 8","region":"Dublin City"},"name":"Dublinia","related_places":{},"timezone":"Europe/Dublin"},{"fsq_id":"4fdbdce5be77dde69e2f9f58","categories":[{"id":17042,"name":"Children's Clothing Store","icon":{"prefix":"https://ss3.4sqi.net/img/categories_v2/shops/apparel_kids_","suffix":".png"}},{"id":17043,"name":"Clothing Store","icon":{"prefix":"https://ss3.4sqi.net/img/categories_v2/shops/apparel_","suffix":".png"}},{"id":17052,"name":"Women's Store","icon":{"prefix":"https://ss3.4sqi.net/img/categories_v2/shops/apparel_women_","suffix":".png"}}],"chains":[],"distance":139,"geocodes":{"main":{"latitude":53.344673,"longitude":-6.269287},"roof":{"latitude":53.344673,"longitude":-6.269287}},"link":"/v3/places/4fdbdce5be77dde69e2f9f58","location":{"address":"Unit 3 Scarlet Row, Essex Street West, Temple Bar","address_extended":"Unit 3","admin_region":"Leinster","country":"IE","formatted_address":"Unit 3 Scarlet Row, Essex Street West, Temple Bar, Dublin, Dublin City","locality":"Dublin","neighborhood":["Temple Bar"],"postcode":"Dublin 8","region":"Dublin City"},"name":"Tamp & Stitch","related_places":{},"timezone":"Europe/Dublin"},{"fsq_id":"4b8149e5f964a520c49d30e3","categories":[{"id":13002,"name":"Bakery","icon":{"prefix":"https://ss3.4sqi.net/img/categories_v2/food/bakery_","suffix":".png"}},{"id":13034,"name":"Café","icon":{"prefix":"https://ss3.4sqi.net/img/categories_v2/food/cafe_","suffix":".png"}},{"id":13065,"name":"Restaurant","icon":{"prefix":"https://ss3.4sqi.net/img/categories_v2/food/default_","suffix":".png"}}],"chains":[],"distance":142,"geocodes":{"main":{"latitude":53.344209,"longitude":-6.268951},"roof":{"latitude":53.344209,"longitude":-6.268951}},"link":"/v3/places/4b8149e5f964a520c49d30e3","location":{"address":"Cow's Lane","admin_region":"Leinster","country":"IE","cross_street":"","formatted_address":"Cow's Lane, Dublin, Dublin City","locality":"Dublin","neighborhood":["Temple Bar"],"postcode":"Dublin 2","region":"Dublin City"},"name":"Queen of Tarts","related_places":{},"timezone":"Europe/Dublin"},{"fsq_id":"4b6189def964a52057172ae3","categories":[{"id":17018,"name":"Bookstore","icon":{"prefix":"https://ss3.4sqi.net/img/categories_v2/shops/bookstore_","suffix":".png"}}],"chains":[],"distance":165,"geocodes":{"main":{"latitude":53.344487,"longitude":-6.268902},"roof":{"latitude":53.344487,"longitude":-6.268902}},"link":"/v3/places/4b6189def964a52057172ae3","location":{"address":"Cow's Lane","admin_region":"Leinster","country":"IE","cross_street":"","formatted_address":"Cow's Lane, Temple Bar, Dublin City","locality":"Temple Bar","neighborhood":["Temple Bar"],"postcode":"Dublin 8","region":"Dublin City"},"name":"The Gutter Bookshop","related_places":{},"timezone":"Europe/Dublin"},{"fsq_id":"5537d82a498ec9e4c6c4569d","categories":[{"id":13006,"name":"Beer Bar","icon":{"prefix":"https://ss3.4sqi.net/img/categories_v2/nightlife/pub_","suffix":".png"}},{"id":13065,"name":"Restaurant","icon":{"prefix":"https://ss3.4sqi.net/img/categories_v2/food/default_","suffix":".png"}}],"chains":[],"distance":189,"geocodes":{"main":{"latitude":53.343293,"longitude":-6.273197},"roof":{"latitude":53.343293,"longitude":-6.273197}},"link":"/v3/places/5537d82a498ec9e4c6c4569d","location":{"address":"13 High St","admin_region":"Leinster","country":"IE","cross_street":"","formatted_address":"13 High St, Dublin, Dublin City","locality":"Dublin","neighborhood":["Christchurch"],"postcode":"Dublin 8","region":"Dublin City"},"name":"The Beer Market","related_places":{},"timezone":"Europe/Dublin"},{"fsq_id":"4b0aa79ff964a520082623e3","categories":[{"id":10039,"name":"Music Venue","icon":{"prefix":"https://ss3.4sqi.net/img/categories_v2/arts_entertainment/musicvenue_","suffix":".png"}},{"id":10043,"name":"Theater","icon":{"prefix":"https://ss3.4sqi.net/img/categories_v2/arts_entertainment/performingarts_theater_","suffix":".png"}}],"chains":[],"distance":191,"geocodes":{"main":{"latitude":53.345003,"longitude":-6.269098}},"link":"/v3/places/4b0aa79ff964a520082623e3","location":{"address":"Exchange St Lwr, Temple Bar","admin_region":"Leinster","country":"IE","cross_street":"","formatted_address":"Exchange St Lwr, Temple Bar, Dublin, Dublin City","locality":"Dublin","neighborhood":["Temple Bar"],"postcode":"Dublin 8","region":"Dublin City"},"name":"Smock Alley Theatre","related_places":{},"timezone":"Europe/Dublin"},{"fsq_id":"4bb19e55f964a5203a9c3ce3","categories":[{"id":13002,"name":"Bakery","icon":{"prefix":"https://ss3.4sqi.net/img/categories_v2/food/bakery_","suffix":".png"}},{"id":13035,"name":"Coffee Shop","icon":{"prefix":"https://ss3.4sqi.net/img/categories_v2/food/coffeeshop_","suffix":".png"}},{"id":13065,"name":"Restaurant","icon":{"prefix":"https://ss3.4sqi.net/img/categories_v2/food/default_","suffix":".png"}}],"chains":[],"distance":194,"geocodes":{"main":{"latitude":53.344571,"longitude":-6.268568},"roof":{"latitude":53.344571,"longitude":-6.268568}},"link":"/v3/places/4bb19e55f964a5203a9c3ce3","location":{"address":"U 3 Pudding Row Essex St, W D","address_extended":"Unit 3","admin_region":"Leinster","country":"IE","cross_street":"","formatted_address":"U 3 Pudding Row Essex St, W D, Dublin, Dublin City","locality":"Dublin","neighborhood":["City Centre"],"postcode":"Dublin 2","region":"Dublin City"},"name":"The Bakery","related_places":{},"timezone":"Europe/Dublin"},{"fsq_id":"4ade0f00f964a520b97021e3","categories":[{"id":13034,"name":"Café","icon":{"prefix":"https://ss3.4sqi.net/img/categories_v2/food/cafe_","suffix":".png"}},{"id":13002,"name":"Bakery","icon":{"prefix":"https://ss3.4sqi.net/img/categories_v2/food/bakery_","suffix":".png"}}],"chains":[],"distance":206,"geocodes":{"main":{"latitude":53.344151,"longitude":-6.267727},"roof":{"latitude":53.344151,"longitude":-6.267727}},"link":"/v3/places/4ade0f00f964a520b97021e3","location":{"address":"Cork Hill","admin_region":"Leinster","country":"IE","cross_street":"","formatted_address":"Cork Hill, Dublin, Dublin City","locality":"Dublin","postcode":"Dublin 2","region":"Dublin City"},"name":"Queen Of Tarts","related_places":{},"timezone":"Europe/Dublin"}],"context":{"geo_bounds":{"circle":{"center":{"latitude":53.343504,"longitude":-6.270592},"radius":1000}}}}