{"results":[{"fsq_id":"4b044c50f964a5200b5322e3","categories":[{"id":13018,"name":"Pub","icon":{"prefix":"https://ss3.4sqi.net/img/categories_v2/nightlife/pub_","suffix":".png"}},{"id":13057,"name":"Gastropub","icon":{"prefix":"https://ss3.4sqi.net/img/categories_v2/food/gastropub_","suffix":".png"}},{"id":13383,"name":"Steakhouse","icon":{"prefix":"https://ss3.4sqi.net/img/categories_v2/food/steakhouse_","suffix":".png"}}],"chains":[],"distance":31,"geocodes":{"main":{"latitude":53.343411,"longitude":-6.269951},"roof":{"latitude":53.343411,"longitude":-6.269951}},"link":"/v3/places/4b044c50f964a5200b5322e3","location":{"address":"5 - 7 Lord Edward St","admin_region":"Leinster","country":"IE","formatted_address":"5 - 7 Lord Edward St, Dublin, Dublin City","locality":"Dublin","postcode":"Dublin 2","region":"Dublin City"},"name":"The Bull and Castle","related_places":{},"timezone":"Europe/Dublin"},{"fsq_id":"4b2a2ceff964a520cba524e3","categories":[{"id":13016,"name":"Lounge","icon":{"prefix":"https://ss3.4sqi.net/img/categories_v2/nightlife/default_","suffix":".png"}},{"id":13018,"name":"Pub","icon":{"prefix":"https://ss3.4sqi.net/img/categories_v2/nightlife/pub_","suffix":".png"}},{"id":13065,"name":"Restaurant","icon":{"prefix":"https://ss3.4sqi.net/img/categories_v2/food/default_","suffix":".png"}}],"chains":[],"distance":61,"geocodes":{"main":{"latitude":53.343967,"longitude":-6.269851},"roof":{"latitude":53.343967,"longitude":-6.269851}},"link":"/v3/places/4b2a2ceff964a520cba524e3","location":{"address":"Fishamble St","admin_region":"Leinster","country":"IE","formatted_address":"Fishamble St, Dublin, Dublin City","locality":"Dublin","postcode":"Dublin 2","region":"Dublin City"},"name":"Darkey Kellys","related_places":{},"timezone":"Europe/Dublin"},{"fsq_id":"4c7d3c3b10916dcb4fca2896","categories":[{"id":10030,"name":"History Museum","icon":{"prefix":"https://ss3.4sqi.net/img/categories_v2/arts_entertainment/museum_history_","suffix":".png"}}],"chains":[],"distance":97,"geocodes":{"main":{"latitude":53.343226,"longitude":-6.272074},"roof":{"latitude":53.343226,"longitude":-6.272074}},"link":"/v3/places/4c7d3c3b10916dcb4fca2896","location":{"address":"St Michael's Hill","admin_region":"Leinster","country":"IE","formatted_address":"St Michael's Hill, Dublin, Dublin City","locality":"Dublin","neighborhood":["Christchurch"],"postcode":"Dublin 8","region":"Dublin City"},"name":"Dublinia","related_places":{},"timezone":"Europe/Dublin"},{"fsq_id":"4fdbdce5be77dde69e2f9f58","categories":[{"id":17042,"name":"Children's Clothing Store","icon":{"prefix":"https://ss3.4sqi.net/img/categories_v2/shops/apparel_kids_","suffix":".png"}},{"id":17043,"name":"Clothing Store","icon":{"prefix":"https://ss3.4sqi.net/img/categories_v2/shops/apparel_","suffix":".png"}},{"id":17052,"name":"Women's Store","icon":{"prefix":"https://ss3.4sqi.net/img/categories_v2/shops/apparel_women_","suffix":".png"}}],"chains":[],"distance":139,"geocodes":{"main":{"latitude":53.344673,"longitude":-6.269287},"roof":{"latitude":53.344673,"longitude":-6.269287}},"link":"/v3/places/4fdbdce5be77dde69e2f9f58","location":{"address":"Unit 3 Scarlet Row, Essex Street West, Temple Bar","address_extended":"Unit 3","admin_region":"Leinster","country":"IE","formatted_address":"Unit 3 Scarlet Row, Essex Street West, Temple Bar, Dublin, Dublin City","locality":"Dublin","neighborhood":["Temple Bar"],"postcode":"Dublin 8","region":"Dublin City"},"name":"Tamp & Stitch","related_places":{},"timezone":"Europe/Dublin"},{"fsq_id":"4b8149e5f964a520c49d30e3","categories":[{"id":13002,"name":"Bakery","icon":{"prefix":"https://ss3.4sqi.net/img/categories_v2/food/bakery_","suffix":".png"}},{"id":13034,"name":"Café","icon":{"prefix":"https://ss3.4sqi.net/img/categories_v2/food/cafe_","suffix":".png"}},{"id":13065,"name":"Restaurant","icon":{"prefix":"https://ss3.4sqi.net/img/categories_v2/food/default_","suffix":".png"}}],"chains":[],"distance":142,"geocodes":{"main":{"latitude":53.344209,"longitude":-6.268951},"roof":{"latitude":53.344209,"longitude":-6.268951}},"link":"/v3/places/4b8149e5f964a520c49d30e3","location":{"address":"Cow's Lane","admin_region":"Leinster","country":"IE","cross_street":"","formatted_address":"Cow's Lane, Dublin, Dublin City","locality":"Dublin","neighborhood":["Temple Bar"],"postcode":"Dublin 2","region":"Dublin City"},"name":"Queen of Tarts","related_places":{},"timezone":"Europe/Dublin"},{"fsq_id":"4b6189def964a52057172ae3","categories":[{"id":17018,"name":"Bookstore","icon":{"prefix":"https://ss3.4sqi.net/img/categories_v2/shops/bookstore_","suffix":".png"}}],"chains":[],"distance":165,"geocodes":{"main":{"latitude":53.344487,"longitude":-6.268902},"roof":{"latitude":53.344487,"longitude":-6.268902}},"link":"/v3/places/4b6189def964a52057172ae3","location":{"address":"Cow's Lane","admin_region":"Leinster","country":"IE","cross_street":"","formatted_address":"Cow's Lane, Temple Bar, Dublin City","locality":"Temple Bar","neighborhood":["Temple Bar"],"postcode":"Dublin 8","region":"Dublin City"},"name":"The Gutter Bookshop","related_places":{},"timezone":"Europe/Dublin"},{"fsq_id":"5537d82a498ec9e4c6c4569d","categories":[{"id":13006,"name":"Beer Bar","icon":{"prefix":"https://ss3.4sqi.net/img/categories_v2/nightlife/pub_","suffix":".png"}},{"id":13065,"name":"Restaurant","icon":{"prefix":"https://ss3.4sqi.net/img/categories_v2/food/default_","suffix":".png"}}],"chains":[],"distance":189,"geocodes":{"main":{"latitude":53.343293,"longitude":-6.273197},"roof":{"latitude":53.343293,"longitude":-6.273197}},"link":"/v3/places/5537d82a498ec9e4c6c4569d","location":{"address":"13 High St","admin_region":"Leinster","country":"IE","cross_street":"","formatted_address":"13 High St, Dublin, Dublin City","locality":"Dublin","neighborhood":["Christchurch"],"postcode":"Dublin 8","region":"Dublin City"},"name":"The Beer Market","related_places":{},"timezone":"Europe/Dublin"},{"fsq_id":"4b0aa79ff964a520082623e3","categories":[{"id":10039,"name":"Music Venue","icon":{"prefix":"https://ss3.4sqi.net/img/categories_v2/arts_entertainment/musicvenue_","suffix":".png"}},{"id":10043,"name":"Theater","icon":{"prefix":"https://ss3.4sqi.net/img/categories_v2/arts_entertainment/performingarts_theater_","suffix":".png"}}],"chains":[],"distance":191,"geocodes":{"main":{"latitude":53.345003,"longitude":-6.269098}},"link":"/v3/places/4b0aa79ff964a520082623e3","location":{"address":"Exchange St Lwr, Temple Bar","admin_region":"Leinster","country":"IE","cross_street":"","formatted_address":"Exchange St Lwr, Temple Bar, Dublin, Dublin City","locality":"Dublin","neighborhood":["Temple Bar"],"postcode":"Dublin 8","region":"Dublin City"},"name":"Smock Alley Theatre","related_places":{},"timezone":"Europe/Dublin"},{"fsq_id":"4bb19e55f964a5203a9c3ce3","categories":[{"id":13002,"name":"Bakery","icon":{"prefix":"https://ss3.4sqi.net/img/categories_v2/food/bakery_","suffix":".png"}},{"id":13035,"name":"Coffee Shop","icon":{"prefix":"https://ss3.4sqi.net/img/categories_v2/food/coffeeshop_","suffix":".png"}},{"id":13065,"name":"Restaurant","icon":{"prefix":"https://ss3.4sqi.net/img/categories_v2/food/default_","suffix":".png"}}],"chains":[],"distance":194,"geocodes":{"main":{"latitude":53.344571,"longitude":-6.268568},"roof":{"latitude":53.344571,"longitude":-6.268568}},"link":"/v3/places/4bb19e55f964a5203a9c3ce3","location":{"address":"U 3 Pudding Row Essex St, W D","address_extended":"Unit 3","admin_region":"Leinster","country":"IE","cross_street":"","formatted_address":"U 3 Pudding Row Essex St, W D, Dublin, Dublin City","locality":"Dublin","neighborhood":["City Centre"],"postcode":"Dublin 2","region":"Dublin City"},"name":"The Bakery","related_places":{},"timezone":"Europe/Dublin"},{"fsq_id":"4ade0f00f964a520b97021e3","categories":[{"id":13034,"name":"Café","icon":{"prefix":"https://ss3.4sqi.net/img/categories_v2/food/cafe_","suffix":".png"}},{"id":13002,"name":"Bakery","icon":{"prefix":"https://ss3.4sqi.net/img/categories_v2/food/bakery_","suffix":".png"}}],"chains":[],"distance":206,"geocodes":{"main":{"latitude":53.344151,"longitude":-6.267727},"roof":{"latitude":53.344151,"longitude":-6.267727}},"link":"/v3/places/4ade0f00f964a520b97021e3","location":{"address":"Cork Hill","admin_region":"Leinster","country":"IE","cross_street":"","formatted_address":"Cork Hill, Dublin, Dublin City","locality":"Dublin","postcode":"Dublin 2","region":"Dublin City"},"name":"Queen Of Tarts","related_places":{},"timezone":"Europe/Dublin"},{"fsq_id":"4ade0f13f964a5200e7121e3","categories":[{"id":16007,"name":"Building / Structure","icon":{"prefix":"https://ss3.4sqi.net/img/categories_v2/building/default_","suffix":".png"}}],"chains":[],"distance":213,"geocodes":{"main":{"latitude":53.342977,"longitude":-6.26738},"roof":{"latitude":53.342977,"longitude":-6.26738}},"link":"/v3/places/4ade0f13f964a5200e7121e3","location":{"address":"Dame St","admin_region":"Leinster","country":"IE","formatted_address":"Dame St, Dublin, Dublin City","locality":"Dublin","postcode":"Dublin 2","region":"Dublin City"},"name":"Dublin Castle","related_places":{"children":[{"fsq_id":"55f7f6a3498e7796ea75cc93","name":"Bedford Hall"},{"fsq_id":"4ade0f2af964a5204e7121e3","name":"Chester Beatty Library"},{"fsq_id":"5d1f6b75d1c267002388841c","name":"Museum Of Contemporany Photography"},{"fsq_id":"4cfff60af7b38cfa045dccc3","name":"Chapel Royal"},{"fsq_id":"5254058211d280c5d0faa6a9","name":"Revenue Museum"},{"fsq_id":"4afeaa78f964a520dc2f22e3","name":"Silk Road Cafe"},{"fsq_id":"4c064a8d91d776b0e893f8f9","name":"The Coach House"},{"fsq_id":"4cb405e01168a093afd64523","name":"Dublin Castle Conference Centre"},{"fsq_id":"4cc6e52ebde8f04dd262b94b","name":"Moriarty Tribunal"},{"fsq_id":"598f10219fca563934b1bf75","name":"St Patrick's Hall"},{"fsq_id":"522898b811d2d36c44ce8d85","name":"Dublin Castle Tea Rooms"},{"fsq_id":"4fddb0e3e4b0602ab655dc7c","name":"The Dubhlinn Gardens"},{"fsq_id":"5386f276498e93278437954e","name":"Dublin Castle Gift Shop"},{"fsq_id":"59a17e62c8772e433af42243","name":"40 Steps"},{"fsq_id":"4b8fcaa8f964a520836233e3","name":"Dublin Castle Café"},{"fsq_id":"5a3bdcaa8ad62e0222f36fa2","name":"The Terrace Cafe"}]},"timezone":"Europe/Dublin"},{"fsq_id":"4e67bdb8d4c0d522463aab96","categories":[{"id":13177,"name":"Greek Restaurant","icon":{"prefix":"https://ss3.4sqi.net/img/categories_v2/food/greek_","suffix":".png"}}],"chains":[],"distance":253,"geocodes":{"main":{"latitude":53.344707,"longitude":-6.267628},"roof":{"latitude":53.344707,"longitude":-6.267628}},"link":"/v3/places/4e67bdb8d4c0d522463aab96","location":{"address":"12 Parliament St","admin_region":"Leinster","country":"IE","formatted_address":"12 Parliament St, Dublin, Dublin City","locality":"Dublin","neighborhood":["City Centre"],"postcode":"Dublin 2","region":"Dublin City"},"name":"Corfu Greek Restaurant","related_places":{},"timezone":"Europe/Dublin"},{"fsq_id":"56754cfb498ec861116926c6","categories":[{"id":13002,"name":"Bakery","icon":{"prefix":"https://ss3.4sqi.net/img/categories_v2/food/bakery_","suffix":".png"}},{"id":13064,"name":"Pizzeria","icon":{"prefix":"https://ss3.4sqi.net/img/categories_v2/food/pizza_","suffix":".png"}},{"id":13236,"name":"Italian Restaurant","icon":{"prefix":"https://ss3.4sqi.net/img/categories_v2/food/italian_","suffix":".png"}}],"chains":[],"distance":241,"geocodes":{"main":{"latitude":53.344367,"longitude":-6.267131},"roof":{"latitude":53.344367,"longitude":-6.267131}},"link":"/v3/places/56754cfb498ec861116926c6","location":{"address":"6 Parliament St","admin_region":"Leinster","country":"IE","cross_street":"","formatted_address":"6 Parliament St, Dublin, Dublin City","locality":"Dublin","postcode":"Dublin 2","region":"Dublin City"},"name":"Aperitivo","related_places":{},"timezone":"Europe/Dublin"},{"fsq_id":"4af1e047f964a52007e421e3","categories":[{"id":13018,"name":"Pub","icon":{"prefix":"https://ss3.4sqi.net/img/categories_v2/nightlife/pub_","suffix":".png"}},{"id":13065,"name":"Restaurant","icon":{"prefix":"https://ss3.4sqi.net/img/categories_v2/food/default_","suffix":".png"}}],"chains":[],"distance":274,"geocodes":{"main":{"latitude":53.345118,"longitude":-6.267315},"roof":{"latitude":53.345118,"longitude":-6.267315}},"link":"/v3/places/4af1e047f964a52007e421e3","location":{"address":"16-18 Parliament St","admin_region":"Leinster","country":"IE","formatted_address":"16-18 Parliament St, Dublin, Dublin City","locality":"Dublin","neighborhood":["Temple Bar"],"postcode":"Dublin 2","region":"Dublin City"},"name":"The Porterhouse","related_places":{},"timezone":"Europe/Dublin"},{"fsq_id":"4d864d9e5ad3a0934298f6fd","categories":[{"id":13064,"name":"Pizzeria","icon":{"prefix":"https://ss3.4sqi.net/img/categories_v2/food/pizza_","suffix":".png"}}],"chains":[],"distance":273,"geocodes":{"main":{"latitude":53.345082,"longitude":-6.26772},"roof":{"latitude":53.345082,"longitude":-6.26772}},"link":"/v3/places/4d864d9e5ad3a0934298f6fd","location":{"address":"22 Parliament St","admin_region":"Leinster","country":"IE","cross_street":"","formatted_address":"22 Parliament St, Dublin","locality":"Dublin","postcode":"Dublin 2"},"name":"DiFontaine's Pizzeria","related_places":{},"timezone":"Europe/Dublin"},{"fsq_id":"4afeaa78f964a520dc2f22e3","categories":[{"id":13034,"name":"Café","icon":{"prefix":"https://ss3.4sqi.net/img/categories_v2/food/cafe_","suffix":".png"}},{"id":13199,"name":"Indian Restaurant","icon":{"prefix":"https://ss3.4sqi.net/img/categories_v2/food/indian_","suffix":".png"}},{"id":13309,"name":"Middle Eastern Restaurant","icon":{"prefix":"https://ss3.4sqi.net/img/categories_v2/food/middleeastern_","suffix":".png"}}],"chains":[],"distance":255,"geocodes":{"main":{"latitude":53.342372,"longitude":-6.267409},"roof":{"latitude":53.342372,"longitude":-6.267409}},"link":"/v3/places/4afeaa78f964a520dc2f22e3","location":{"address":"Chester Beatty Library, Dublin Castle","admin_region":"Leinster","country":"IE","cross_street":"Chester Beatty Library","formatted_address":"Chester Beatty Library, Dublin Castle (Chester Beatty Library), Dublin, Dublin City","locality":"Dublin","postcode":"Dublin 2","region":"Dublin City"},"name":"Silk Road Cafe","related_places":{"parent":{"fsq_id":"4ade0f13f964a5200e7121e3","name":"Dublin Castle"}},"timezone":"Europe/Dublin"},{"fsq_id":"4ade0f0df964a520f47021e3","categories":[{"id":13016,"name":"Lounge","icon":{"prefix":"https://ss3.4sqi.net/img/categories_v2/nightlife/default_","suffix":".png"}}],"chains":[],"distance":267,"geocodes":{"main":{"latitude":53.345799,"longitude":-6.272072},"roof":{"latitude":53.345799,"longitude":-6.272072}},"link":"/v3/places/4ade0f0df964a520f47021e3","location":{"address":"1-2 Chancery Pl","admin_region":"Leinster","country":"IE","formatted_address":"1-2 Chancery Pl, Dublin, Dublin City","locality":"Dublin","neighborhood":["Four Courts"],"postcode":"Dublin 7","region":"Dublin City"},"name":"The Legal Eagle","related_places":{"children":[{"fsq_id":"63666f667f1e2238f78fa3bc","name":"Underdog"},{"fsq_id":"636ed5ae4fd70606d65a5d5e","name":"Underdog"}]},"timezone":"Europe/Dublin"},{"fsq_id":"4df24f021f6e818dadfc3751","categories":[{"id":16000,"name":"Landmarks and Outdoors","icon":{"prefix":"https://ss3.4sqi.net/img/categories_v2/parks_outdoors/default_","suffix":".png"}}],"chains":[],"distance":270,"geocodes":{"main":{"latitude":53.344273,"longitude":-6.274516}},"link":"/v3/places/4df24f021f6e818dadfc3751","location":{"address":"Cook St","admin_region":"Leinster","country":"IE","cross_street":"","formatted_address":"Cook St, Dublin, Dublin City","locality":"Dublin","region":"Dublin City"},"name":"Dublin City Wall","related_places":{},"timezone":"Europe/Dublin"},{"fsq_id":"4ade0f03f964a520c47021e3","categories":[{"id":10039,"name":"Music Venue","icon":{"prefix":"https://ss3.4sqi.net/img/categories_v2/arts_entertainment/musicvenue_","suffix":".png"}},{"id":13016,"name":"Lounge","icon":{"prefix":"https://ss3.4sqi.net/img/categories_v2/nightlife/default_","suffix":".png"}},{"id":13018,"name":"Pub","icon":{"prefix":"https://ss3.4sqi.net/img/categories_v2/nightlife/pub_","suffix":".png"}}],"chains":[],"distance":284,"geocodes":{"main":{"latitude":53.346107,"longitude":-6.269786},"roof":{"latitude":53.346107,"longitude":-6.269786}},"link":"/v3/places/4ade0f03f964a520c47021e3","location":{"address":"14-15 Upper Ormond Quay","admin_region":"Leinster","country":"IE","formatted_address":"14-15 Upper Ormond Quay, Dublin, Dublin City","locality":"Dublin","postcode":"Dublin 7","region":"Dublin City"},"name":"Sin é.","related_places":{},"timezone":"Europe/Dublin"},{"fsq_id":"5995440fbed48347908b0e74","categories":[{"id":13039,"name":"Deli","icon":{"prefix":"https://ss3.4sqi.net/img/categories_v2/food/deli_","suffix":".png"}}],"chains":[],"distance":310,"geocodes":{"main":{"latitude":53.345298,"longitude":-6.267124},"roof":{"latitude":53.345298,"longitude":-6.267124}},"link":"/v3/places/5995440fbed48347908b0e74","location":{"address":"2-5 Wellington Quay, Dublin, Dublin 2","admin_region":"Leinster","country":"IE","cross_street":"","formatted_address":"2-5 Wellington Quay, Dublin, Dublin 2, Dublin","locality":"Dublin","postcode":"Dublin 2"},"name":"Dollard & Co.","related_places":{"children":[{"fsq_id":"61a13a6ebeed863136a3c137","name":"Rice Chinese"}]},"timezone":"Europe/Dublin"},{"fsq_id":"4fddb0e3e4b0602ab655dc7c","categories":[{"id":16000,"name":"Landmarks and Outdoors","icon":{"prefix":"https://ss3.4sqi.net/img/categories_v2/parks_outdoors/default_","suffix":".png"}}],"chains":[],"distance":275,"geocodes":{"main":{"latitude":53.34258,"longitude":-6.266913}},"link":"/v3/places/4fddb0e3e4b0602ab655dc7c","location":{"address":"Dublin Castle, 2 Palace St","admin_region":"Leinster","country":"IE","formatted_address":"Dublin Castle, 2 Palace St, Dublin, Dublin City","locality":"Dublin","postcode":"Dublin 2","region":"Dublin City"},"name":"The Dubhlinn Gardens","related_places":{"parent":{"fsq_id":"4ade0f13f964a5200e7121e3","name":"Dublin Castle"},"children":[{"fsq_id":"55797b7f498e2416e553044c","name":"Special Olympics Garden"},{"fsq_id":"4c2366df9085d13a5dca87cc","name":"An Garda Síochána"},{"fsq_id":"59e1f524f0ca95526b903d08","name":"Veronica Guerin Statue"}]},"timezone":"Europe/Dublin"},{"fsq_id":"4b755a37f964a520d3072ee3","categories":[{"id":13034,"name":"Café","icon":{"prefix":"https://ss3.4sqi.net/img/categories_v2/food/cafe_","suffix":".png"}},{"id":13148,"name":"French Restaurant","icon":{"prefix":"https://ss3.4sqi.net/img/categories_v2/food/french_","suffix":".png"}}],"chains":[],"distance":295,"geocodes":{"main":{"latitude":53.343939,"longitude":-6.266391},"roof":{"latitude":53.343939,"longitude":-6.266391}},"link":"/v3/places/4b755a37f964a520d3072ee3","location":{"address":"1 Palace St","admin_region":"Leinster","country":"IE","formatted_address":"1 Palace St, Dublin, Dublin City","locality":"Dublin","postcode":"Dublin 2","region":"Dublin City"},"name":"Chez Max","related_places":{},"timezone":"Europe/Dublin"},{"fsq_id":"59caaec30d2be74d9eeab315","categories":[{"id":13383,"name":"Steakhouse","icon":{"prefix":"https://ss3.4sqi.net/img/categories_v2/food/steakhouse_","suffix":".png"}}],"chains":[],"distance":297,"geocodes":{"main":{"latitude":53.345241,"longitude":-6.267154},"roof":{"latitude":53.345241,"longitude":-6.267154}},"link":"/v3/places/59caaec30d2be74d9eeab315","location":{"address":"2-5 Essex Street East, Dublin, Dublin 2","admin_region":"Leinster","country":"IE","cross_street":"","formatted_address":"2-5 Essex Street East, Dublin, Dublin 2, Dublin","locality":"Dublin","postcode":"Dublin 2"},"name":"Tomahawk","related_places":{},"timezone":"Europe/Dublin"},{"fsq_id":"5925e8c9a5a31517dfd457e4","categories":[{"id":13065,"name":"Restaurant","icon":{"prefix":"https://ss3.4sqi.net/img/categories_v2/food/default_","suffix":".png"}}],"chains":[],"distance":299,"geocodes":{"main":{"latitude":53.345232,"longitude":-6.267255},"roof":{"latitude":53.345232,"longitude":-6.267255}},"link":"/v3/places/5925e8c9a5a31517dfd457e4","location":{"address":"1 Essex Street East, Dublin, Dublin 2","admin_region":"Leinster","country":"IE","cross_street":"","formatted_address":"1 Essex Street East, Dublin, Dublin 2, Dublin","locality":"Dublin","postcode":"Dublin 2"},"name":"Roberta's Restaurant, Bar & Terrace","related_places":{},"timezone":"Europe/Dublin"},{"fsq_id":"4ade0f4cf964a520d77121e3","categories":[{"id":10037,"name":"Concert Hall","icon":{"prefix":"https://ss3.4sqi.net/img/categories_v2/arts_entertainment/musicvenue_","suffix":".png"}},{"id":10039,"name":"Music Venue","icon":{"prefix":"https://ss3.4sqi.net/img/categories_v2/arts_entertainment/musicvenue_","suffix":".png"}},{"id":13003,"name":"Bar","icon":{"prefix":"https://ss3.4sqi.net/img/categories_v2/nightlife/pub_","suffix":".png"}}],"chains":[],"distance":329,"geocodes":{"main":{"latitude":53.344398,"longitude":-6.26615},"roof":{"latitude":53.344398,"longitude":-6.26615}},"link":"/v3/places/4ade0f4cf964a520d77121e3","location":{"address":"72 Dame St","admin_region":"Leinster","country":"IE","formatted_address":"72 Dame St, Dublin, Dublin City","locality":"Dublin","postcode":"Dublin 2","region":"Dublin City"},"name":"Olympia Theatre","related_places":{"children":[{"fsq_id":"4bc374532a89ef3b1d0df588","name":"Maureen's Bar"}]},"timezone":"Europe/Dublin"},{"fsq_id":"5bede4a03fcee8002c3e270f","categories":[{"id":13065,"name":"Restaurant","icon":{"prefix":"https://ss3.4sqi.net/img/categories_v2/food/default_","suffix":".png"}}],"chains":[],"distance":338,"geocodes":{"main":{"latitude":53.340673,"longitude":-6.268622}},"link":"/v3/places/5bede4a03fcee8002c3e270f","location":{"address":"Castle Way, Golden Lane, Dublin, D08 T8F2","admin_region":"Leinster","country":"IE","cross_street":"","formatted_address":"Castle Way, Golden Lane, Dublin, D08 T8F2, Dublin","locality":"Dublin","postcode":"Dublin 8"},"name":"Feast","related_places":{},"timezone":"Europe/Dublin"},{"fsq_id":"5250bcbe11d2993d2a1e17a0","categories":[{"id":13144,"name":"Falafel Restaurant","icon":{"prefix":"https://ss3.4sqi.net/img/categories_v2/food/falafel_","suffix":".png"}},{"id":13298,"name":"Lebanese Restaurant","icon":{"prefix":"https://ss3.4sqi.net/img/categories_v2/food/middleeastern_","suffix":".png"}},{"id":13309,"name":"Middle Eastern Restaurant","icon":{"prefix":"https://ss3.4sqi.net/img/categories_v2/food/middleeastern_","suffix":".png"}}],"chains":[],"distance":336,"geocodes":{"main":{"latitude":53.344027,"longitude":-6.26538},"roof":{"latitude":53.344027,"longitude":-6.26538}},"link":"/v3/places/5250bcbe11d2993d2a1e17a0","location":{"address":"13 Dame St","admin_region":"Leinster","country":"IE","cross_street":"","formatted_address":"13 Dame St, Dublin, Dublin City","locality":"Dublin","postcode":"Dublin 2","region":"Dublin City"},"name":"Umi Falafel","related_places":{},"timezone":"Europe/Dublin"},{"fsq_id":"4b9575a3f964a520b3a334e3","categories":[{"id":13148,"name":"French Restaurant","icon":{"prefix":"https://ss3.4sqi.net/img/categories_v2/food/french_","suffix":".png"}}],"chains":[],"distance":341,"geocodes":{"main":{"latitude":53.340696,"longitude":-6.269063},"roof":{"latitude":53.340696,"longitude":-6.269063}},"link":"/v3/places/4b9575a3f964a520b3a334e3","location":{"address":"Radisson SAS Royal Hotel, Golden Lane","admin_region":"Leinster","country":"IE","formatted_address":"Radisson SAS Royal Hotel, Golden Lane, Dublin, Dublin City","locality":"Dublin","postcode":"Dublin 8","region":"Dublin City"},"name":"Brasserie de Verres en Vers","related_places":{},"timezone":"Europe/Dublin"},{"fsq_id":"4b163403f964a52084b723e3","categories":[{"id":13034,"name":"Café","icon":{"prefix":"https://ss3.4sqi.net/img/categories_v2/food/cafe_","suffix":".png"}},{"id":13035,"name":"Coffee Shop","icon":{"prefix":"https://ss3.4sqi.net/img/categories_v2/food/coffeeshop_","suffix":".png"}},{"id":13065,"name":"Restaurant","icon":{"prefix":"https://ss3.4sqi.net/img/categories_v2/food/default_","suffix":".png"}}],"chains":[],"distance":331,"geocodes":{"main":{"latitude":53.340711,"longitude":-6.272047}},"link":"/v3/places/4b163403f964a52084b723e3","location":{"address":"55 Patrick St","admin_region":"Leinster","country":"IE","formatted_address":"55 Patrick St, Dublin, Dublin City","locality":"Dublin","neighborhood":["City Centre"],"postcode":"Dublin 8","region":"Dublin City"},"name":"Bite of Life","related_places":{},"timezone":"Europe/Dublin"},{"fsq_id":"520a800211d2d0a0205eddf8","categories":[{"id":10032,"name":"Night Club","icon":{"prefix":"https://ss3.4sqi.net/img/categories_v2/nightlife/nightclub_","suffix":".png"}},{"id":13009,"name":"Cocktail Bar","icon":{"prefix":"https://ss3.4sqi.net/img/categories_v2/nightlife/cocktails_","suffix":".png"}}],"chains":[],"distance":325,"geocodes":{"main":{"latitude":53.345325,"longitude":-6.26682},"roof":{"latitude":53.345325,"longitude":-6.26682}},"link":"/v3/places/520a800211d2d0a0205eddf8","location":{"address":"5 Wellington Quay","admin_region":"Leinster","country":"IE","cross_street":"","formatted_address":"5 Wellington Quay, Dublin, Dublin City","locality":"Dublin","postcode":"Dublin 2","region":"Dublin City"},"name":"The Liquor Rooms","related_places":{"children":[{"fsq_id":"5d20e82a1feae300239a614a","name":"The Cauldron"}]},"timezone":"Europe/Dublin"},{"fsq_id":"4bfbd3feab180f47bb4eb4ce","categories":[{"id":17043,"name":"Clothing Store","icon":{"prefix":"https://ss3.4sqi.net/img/categories_v2/shops/apparel_","suffix":".png"}},{"id":17047,"name":"Men's Store","icon":{"prefix":"https://ss3.4sqi.net/img/categories_v2/shops/apparel_men_","suffix":".png"}}],"chains":[],"distance":348,"geocodes":{"main":{"latitude":53.345289,"longitude":-6.26597},"roof":{"latitude":53.345289,"longitude":-6.26597}},"link":"/v3/places/4bfbd3feab180f47bb4eb4ce","location":{"address":"No.9 Essex Street East, Temple Bar","admin_region":"Leinster","country":"IE","formatted_address":"No.9 Essex Street East, Temple Bar, Dublin, Dublin City","locality":"Dublin","neighborhood":["Temple Bar"],"postcode":"Dublin 2","region":"Dublin City"},"name":"Indigo & Cloth","related_places":{},"timezone":"Europe/Dublin"},{"fsq_id":"4ade0f69f964a520617221e3","categories":[{"id":17018,"name":"Bookstore","icon":{"prefix":"https://ss3.4sqi.net/img/categories_v2/shops/bookstore_","suffix":".png"}},{"id":17022,"name":"Comic Book Store","icon":{"prefix":"https://ss3.4sqi.net/img/categories_v2/shops/comic_","suffix":".png"}}],"chains":[],"distance":366,"geocodes":{"main":{"latitude":53.344274,"longitude":-6.265057},"roof":{"latitude":53.344274,"longitude":-6.265057}},"link":"/v3/places/4ade0f69f964a520617221e3","location":{"address":"62 Dame St","admin_region":"Leinster","country":"IE","formatted_address":"62 Dame St, Dublin, Dublin City","locality":"Dublin","postcode":"Dublin 2","region":"Dublin City"},"name":"Sub-City Comics","related_places":{},"timezone":"Europe/Dublin"},{"fsq_id":"4ade0f2ff964a520657121e3","categories":[{"id":10000,"name":"Arts and Entertainment","icon":{"prefix":"https://ss3.4sqi.net/img/categories_v2/arts_entertainment/default_","suffix":".png"}}],"chains":[],"distance":342,"geocodes":{"main":{"latitude":53.345011,"longitude":-6.26602},"roof":{"latitude":53.345011,"longitude":-6.26602}},"link":"/v3/places/4ade0f2ff964a520657121e3","location":{"address":"39 East Essex Street, Temple Bar","admin_region":"Leinster","country":"IE","formatted_address":"39 East Essex Street, Temple Bar, Dublin, Dublin City","locality":"Dublin","neighborhood":["Temple Bar"],"postcode":"Dublin 2","region":"Dublin City"},"name":"Project Arts Centre","related_places":{"children":[]},"timezone":"Europe/Dublin"},{"fsq_id":"4ade0f4bf964a520d57121e3","categories":[{"id":10026,"name":"Indie Movie Theater","icon":{"prefix":"https://ss3.4sqi.net/img/categories_v2/arts_entertainment/movietheater_","suffix":".png"}},{"id":13034,"name":"Café","icon":{"prefix":"https://ss3.4sqi.net/img/categories_v2/food/cafe_","suffix":".png"}},{"id":13035,"name":"Coffee Shop","icon":{"prefix":"https://ss3.4sqi.net/img/categories_v2/food/coffeeshop_","suffix":".png"}}],"chains":[],"distance":374,"geocodes":{"main":{"latitude":53.344591,"longitude":-6.265179},"roof":{"latitude":53.344591,"longitude":-6.265179}},"link":"/v3/places/4ade0f4bf964a520d57121e3","location":{"address":"6 Eustace St","admin_region":"Leinster","country":"IE","cross_street":"","formatted_address":"6 Eustace St, Dublin, Dublin City","locality":"Dublin","neighborhood":["Temple Bar"],"postcode":"Dublin 2","region":"Dublin City"},"name":"Irish Film Institute (IFI)","related_places":{"children":[{"fsq_id":"4b9cdbcaf964a520147f36e3","name":"IFI Café Bar"}]},"timezone":"Europe/Dublin"},{"fsq_id":"4ade0f0df964a520f67021e3","categories":[{"id":10037,"name":"Concert Hall","icon":{"prefix":"https://ss3.4sqi.net/img/categories_v2/arts_entertainment/musicvenue_","suffix":".png"}},{"id":13018,"name":"Pub","icon":{"prefix":"https://ss3.4sqi.net/img/categories_v2/nightlife/pub_","suffix":".png"}},{"id":13022,"name":"Sports Bar","icon":{"prefix":"https://ss3.4sqi.net/img/categories_v2/nightlife/sportsbar_","suffix":".png"}}],"chains":[],"distance":359,"geocodes":{"main":{"latitude":53.344313,"longitude":-6.265229},"roof":{"latitude":53.344313,"longitude":-6.265229}},"link":"/v3/places/4ade0f0df964a520f67021e3","location":{"address":"64 Dame St","admin_region":"Leinster","country":"IE","formatted_address":"64 Dame St, Dublin, Dublin City","locality":"Dublin","postcode":"Dublin 2","region":"Dublin City"},"name":"Peadar Kearney's","related_places":{},"timezone":"Europe/Dublin"},{"fsq_id":"5116bb73e4b09b369d28ba2b","categories":[{"id":13199,"name":"Indian Restaurant","icon":{"prefix":"https://ss3.4sqi.net/img/categories_v2/food/indian_","suffix":".png"}}],"chains":[],"distance":380,"geocodes":{"main":{"latitude":53.344013,"longitude":-6.264905},"roof":{"latitude":53.344013,"longitude":-6.264905}},"link":"/v3/places/5116bb73e4b09b369d28ba2b","location":{"address":"18 Dame St","admin_region":"Leinster","country":"IE","formatted_address":"18 Dame St, Dublin, Dublin City","locality":"Dublin","postcode":"Dublin 2","region":"Dublin City"},"name":"Kathmandu Kitchen","related_places":{},"timezone":"Europe/Dublin"},{"fsq_id":"4b5257eef964a5204e7827e3","categories":[{"id":13018,"name":"Pub","icon":{"prefix":"https://ss3.4sqi.net/img/categories_v2/nightlife/pub_","suffix":".png"}}],"chains":[],"distance":369,"geocodes":{"main":{"latitude":53.346389,"longitude":-6.267805},"roof":{"latitude":53.346389,"longitude":-6.267805}},"link":"/v3/places/4b5257eef964a5204e7827e3","location":{"address":"165 Capel St","admin_region":"Leinster","country":"IE","cross_street":"","formatted_address":"165 Capel St, Dublin, Dublin City","locality":"Dublin","neighborhood":["North City Centre"],"postcode":"Dublin 1","region":"Dublin City"},"name":"Jack Nealons","related_places":{},"timezone":"Europe/Dublin"},{"fsq_id":"4b8a6510f964a520296b32e3","categories":[{"id":10043,"name":"Theater","icon":{"prefix":"https://ss3.4sqi.net/img/categories_v2/arts_entertainment/performingarts_theater_","suffix":".png"}},{"id":13034,"name":"Café","icon":{"prefix":"https://ss3.4sqi.net/img/categories_v2/food/cafe_","suffix":".png"}}],"chains":[],"distance":366,"geocodes":{"main":{"latitude":53.345289,"longitude":-6.26597},"roof":{"latitude":53.345289,"longitude":-6.26597}},"link":"/v3/places/4b8a6510f964a520296b32e3","location":{"address":"11-12 E Essex St, Temple Bar","country":"IE","cross_street":"","formatted_address":"11-12 E Essex St, Temple Bar, Dublin, Dublin City","locality":"Dublin","postcode":"Dublin 2","region":"Dublin City"},"name":"Stage Door","related_places":{},"timezone":"Europe/Dublin"},{"fsq_id":"4fef5afde4b0660372575a48","categories":[{"id":13018,"name":"Pub","icon":{"prefix":"https://ss3.4sqi.net/img/categories_v2/nightlife/pub_","suffix":".png"}},{"id":13026,"name":"BBQ Joint","icon":{"prefix":"https://ss3.4sqi.net/img/categories_v2/food/bbqalt_","suffix":".png"}}],"chains":[],"distance":352,"geocodes":{"main":{"latitude":53.34536,"longitude":-6.266416},"roof":{"latitude":53.34536,"longitude":-6.266416}},"link":"/v3/places/4fef5afde4b0660372575a48","location":{"address":"11 Wellington Quay","admin_region":"Leinster","country":"IE","formatted_address":"11 Wellington Quay, Dublin, Dublin City","locality":"Dublin","neighborhood":["City Centre"],"postcode":"Dublin 2","region":"Dublin City"},"name":"Bison Bar","related_places":{},"timezone":"Europe/Dublin"},{"fsq_id":"4af9f6d2f964a5209b1522e3","categories":[{"id":10032,"name":"Night Club","icon":{"prefix":"https://ss3.4sqi.net/img/categories_v2/nightlife/nightclub_","suffix":".png"}},{"id":13011,"name":"Gay Bar","icon":{"prefix":"https://ss3.4sqi.net/img/categories_v2/nightlife/gaybar_","suffix":".png"}}],"chains":[],"distance":379,"geocodes":{"main":{"latitude":53.346389,"longitude":-6.267805},"roof":{"latitude":53.346389,"longitude":-6.267805}},"link":"/v3/places/4af9f6d2f964a5209b1522e3","location":{"address":"7-8 Capel St","admin_region":"Leinster","country":"IE","cross_street":"","formatted_address":"7-8 Capel St, Dublin, Dublin City","locality":"Dublin","neighborhood":["Capel Street"],"postcode":"Dublin 1","region":"Dublin City"},"name":"Pantibar","related_places":{},"timezone":"Europe/Dublin"},{"fsq_id":"4bc1e1cc2a89ef3b2cd1f288","categories":[{"id":16032,"name":"Park","icon":{"prefix":"https://ss3.4sqi.net/img/categories_v2/parks_outdoors/park_","suffix":".png"}}],"chains":[],"distance":386,"geocodes":{"main":{"latitude":53.340141,"longitude":-6.271671}},"link":"/v3/places/4bc1e1cc2a89ef3b2cd1f288","location":{"address":"Patrick St","admin_region":"Leinster","country":"IE","cross_street":"","formatted_address":"Patrick St, Dublin, Dublin City","locality":"Dublin","postcode":"Dublin 8","region":"Dublin City"},"name":"St Patrick's Park","related_places":{"children":[{"fsq_id":"5b4c9541286fda002ce10231","name":"The Blossom Tree Cafe"},{"fsq_id":"622f6c069905323fb99acc01","name":"The Tram Café"}]},"timezone":"Europe/Dublin"},{"fsq_id":"54591f8d498e54948de982ad","categories":[{"id":10000,"name":"Arts and Entertainment","icon":{"prefix":"https://ss3.4sqi.net/img/categories_v2/arts_entertainment/default_","suffix":".png"}},{"id":13035,"name":"Coffee Shop","icon":{"prefix":"https://ss3.4sqi.net/img/categories_v2/food/coffeeshop_","suffix":".png"}},{"id":13065,"name":"Restaurant","icon":{"prefix":"https://ss3.4sqi.net/img/categories_v2/food/default_","suffix":".png"}}],"chains":[],"distance":393,"geocodes":{"main":{"latitude":53.345413,"longitude":-6.265809},"roof":{"latitude":53.345413,"longitude":-6.265809}},"link":"/v3/places/54591f8d498e54948de982ad","location":{"address":"15 Wellington Quay","admin_region":"Leinster","country":"IE","cross_street":"","formatted_address":"15 Wellington Quay, Dublin, Dublin City","locality":"Dublin","postcode":"Dublin 2","region":"Dublin City"},"name":"The Ink Factory","related_places":{"children":[{"fsq_id":"55d6084d498e79f0ecd65ab0","name":"The Demon Barbers"}]},"timezone":"Europe/Dublin"},{"fsq_id":"51570077e4b041a996e9ed47","categories":[{"id":13013,"name":"Hotel Bar","icon":{"prefix":"https://ss3.4sqi.net/img/categories_v2/travel/hotel_bar_","suffix":".png"}}],"chains":[],"distance":358,"geocodes":{"main":{"latitude":53.345011,"longitude":-6.26602},"roof":{"latitude":53.345011,"longitude":-6.26602}},"link":"/v3/places/51570077e4b041a996e9ed47","location":{"address":"35-37 Essex St E","admin_region":"Leinster","country":"IE","formatted_address":"35-37 Essex St E, Dublin, Dublin City","locality":"Dublin","neighborhood":["\"\""],"postcode":"Dublin 2","region":"Dublin City"},"name":"Bad Bobs Temple Bar","related_places":{},"timezone":"Europe/Dublin"},{"fsq_id":"522dc22f11d24cdd46a86490","categories":[{"id":13034,"name":"Café","icon":{"prefix":"https://ss3.4sqi.net/img/categories_v2/food/cafe_","suffix":".png"}},{"id":13035,"name":"Coffee Shop","icon":{"prefix":"https://ss3.4sqi.net/img/categories_v2/food/coffeeshop_","suffix":".png"}},{"id":13334,"name":"Sandwich Restaurant","icon":{"prefix":"https://ss3.4sqi.net/img/categories_v2/food/deli_","suffix":".png"}}],"chains":[],"distance":396,"geocodes":{"main":{"latitude":53.34703,"longitude":-6.26988},"roof":{"latitude":53.34703,"longitude":-6.26988}},"link":"/v3/places/522dc22f11d24cdd46a86490","location":{"address":"16 Mary's Abbey, City Markets","admin_region":"Leinster","country":"IE","cross_street":"","formatted_address":"16 Mary's Abbey, City Markets, Dublin","locality":"Dublin","postcode":"Dublin 7"},"name":"Oxmantown","related_places":{},"timezone":"Europe/Dublin"},{"fsq_id":"4ade0eedf964a520747021e3","categories":[{"id":13003,"name":"Bar","icon":{"prefix":"https://ss3.4sqi.net/img/categories_v2/nightlife/pub_","suffix":".png"}}],"chains":[],"distance":414,"geocodes":{"main":{"latitude":53.344978,"longitude":-6.276329}},"link":"/v3/places/4ade0eedf964a520747021e3","location":{"address":"20 Bridge St Lower","admin_region":"Leinster","country":"IE","formatted_address":"20 Bridge St Lower, Dublin, Dublin City","locality":"Dublin","postcode":"Dublin 8","region":"Dublin City"},"name":"The Brazen Head","related_places":{},"timezone":"Europe/Dublin"},{"fsq_id":"4af1fed4f964a52001e521e3","categories":[{"id":13025,"name":"Wine Bar","icon":{"prefix":"https://ss3.4sqi.net/img/categories_v2/food/winery_","suffix":".png"}},{"id":13347,"name":"Tapas Restaurant","icon":{"prefix":"https://ss3.4sqi.net/img/categories_v2/food/tapas_","suffix":".png"}}],"chains":[],"distance":416,"geocodes":{"main":{"latitude":53.34509,"longitude":-6.26511},"roof":{"latitude":53.34509,"longitude":-6.26511}},"link":"/v3/places/4af1fed4f964a52001e521e3","location":{"address":"12 Eustace St","admin_region":"Leinster","country":"IE","cross_street":"","formatted_address":"12 Eustace St, Dublin, Dublin City","locality":"Dublin","neighborhood":["Temple Bar"],"postcode":"Dublin 2","region":"Dublin City"},"name":"The Port House Pintxo","related_places":{},"timezone":"Europe/Dublin"},{"fsq_id":"4ade0f07f964a520d77021e3","categories":[{"id":10032,"name":"Night Club","icon":{"prefix":"https://ss3.4sqi.net/img/categories_v2/nightlife/nightclub_","suffix":".png"}},{"id":13011,"name":"Gay Bar","icon":{"prefix":"https://ss3.4sqi.net/img/categories_v2/nightlife/gaybar_","suffix":".png"}},{"id":13065,"name":"Restaurant","icon":{"prefix":"https://ss3.4sqi.net/img/categories_v2/food/default_","suffix":".png"}}],"chains":[],"distance":406,"geocodes":{"main":{"latitude":53.343704,"longitude":-6.264681},"roof":{"latitude":53.343704,"longitude":-6.264681}},"link":"/v3/places/4ade0f07f964a520d77021e3","location":{"address":"89 S Great Georges St","admin_region":"Leinster","country":"IE","formatted_address":"89 S Great Georges St, Dublin, Dublin City","locality":"Dublin","postcode":"Dublin 2","region":"Dublin City"},"name":"The George","related_places":{},"timezone":"Europe/Dublin"},{"fsq_id":"4b070dc9f964a5205af622e3","categories":[{"id":13016,"name":"Lounge","icon":{"prefix":"https://ss3.4sqi.net/img/categories_v2/nightlife/default_","suffix":".png"}},{"id":13018,"name":"Pub","icon":{"prefix":"https://ss3.4sqi.net/img/categories_v2/nightlife/pub_","suffix":".png"}},{"id":13065,"name":"Restaurant","icon":{"prefix":"https://ss3.4sqi.net/img/categories_v2/food/default_","suffix":".png"}}],"chains":[],"distance":412,"geocodes":{"main":{"latitude":53.341904,"longitude":-6.265243},"roof":{"latitude":53.341904,"longitude":-6.265243}},"link":"/v3/places/4b070dc9f964a5205af622e3","location":{"address":"51 South Great George's St","admin_region":"Leinster","country":"IE","formatted_address":"51 South Great George's St, Dublin, Dublin City","locality":"Dublin","postcode":"Dublin 2","region":"Dublin City"},"name":"The Long Hall","related_places":{},"timezone":"Europe/Dublin"},{"fsq_id":"4f05b6f38b81bb1b02d51f42","categories":[{"id":13072,"name":"Asian Restaurant","icon":{"prefix":"https://ss3.4sqi.net/img/categories_v2/food/asian_","suffix":".png"}},{"id":13276,"name":"Sushi Restaurant","icon":{"prefix":"https://ss3.4sqi.net/img/categories_v2/food/sushi_","suffix":".png"}},{"id":13338,"name":"Seafood Restaurant","icon":{"prefix":"https://ss3.4sqi.net/img/categories_v2/food/seafood_","suffix":".png"}}],"chains":[],"distance":417,"geocodes":{"main":{"latitude":53.347024,"longitude":-6.268049},"roof":{"latitude":53.347024,"longitude":-6.268049}},"link":"/v3/places/4f05b6f38b81bb1b02d51f42","location":{"address":"15 Capel St","admin_region":"Leinster","country":"IE","formatted_address":"15 Capel St, Dublin, Dublin City","locality":"Dublin","neighborhood":["City Centre"],"postcode":"Dublin 1","region":"Dublin City"},"name":"Musashi Noodles & Sushi BAR","related_places":{},"timezone":"Europe/Dublin"},{"fsq_id":"4e4fd10caeb70f1284a53e85","categories":[{"id":13003,"name":"Bar","icon":{"prefix":"https://ss3.4sqi.net/img/categories_v2/nightlife/pub_","suffix":".png"}},{"id":13072,"name":"Asian Restaurant","icon":{"prefix":"https://ss3.4sqi.net/img/categories_v2/food/asian_","suffix":".png"}},{"id":13263,"name":"Japanese Restaurant","icon":{"prefix":"https://ss3.4sqi.net/img/categories_v2/food/japanese_","suffix":".png"}}],"chains":[],"distance":407,"geocodes":{"main":{"latitude":53.343201,"longitude":-6.264174},"roof":{"latitude":53.343201,"longitude":-6.264174}},"link":"/v3/places/4e4fd10caeb70f1284a53e85","location":{"address":"12-13 South Great George's St","admin_region":"Leinster","country":"IE","formatted_address":"12-13 South Great George's St, Dublin, Dublin City","locality":"Dublin","postcode":"Dublin 2","region":"Dublin City"},"name":"Yamamori Izakaya","related_places":{},"timezone":"Europe/Dublin"}],"context":{"geo_bounds":{"circle":{"center":{"latitude":53.343504,"longitude":-6.270592},"radius":1000}}}}